{
  "events": [
    {
      "id": 1,
      "name": "Initial Derailment Incident",
      "image": "train",
      "lat": 51.857,
      "lng": 6.184,
      "level": 0.9,
      "date": "2024-12-15",
      "description": "A train carrying industrial waste derailed near the Dutch-German border.",
      "badges": [
        "industry",
        "chemical",
        "spill"
      ]
    },
    {
      "id": 2,
      "name": "Contamination of River Rhine",
      "image": "river",
      "lat": 51.848,
      "lng": 6.117,
      "level": 0.8,
      "date": "2025-01-23",
      "description": "Toxins entered River Rhine, beginning their downstream journey.",
      "badges": [
        "water",
        "spread"
      ]
    },
    {
      "id": 3,
      "name": "Alert in Nijmegen",
      "image": "alert",
      "lat": 51.843,
      "lng": 5.852,
      "level": 0.6,
      "date": "2025-02-01",
      "description": "Initial public health advisory regarding water contamination in Dortmund.",
      "badges": [
        "health",
        "urban"
      ]
    },
    {
      "id": 4,
      "name": "Toxins Reach North Sea",
      "image": "contamination",
      "lat": 52.2553,
      "lng": 4.4840,
      "level": 0.7,
      "date": "2025-03-10",
      "description": "Contaminated waters reach the North Sea, spreading to coastal regions.",
      "badges": [
        "marine"
      ]
    },
    {
      "id": 5,
      "name": "Belgian Water Restrictions",
      "image": "government-eu",
      "lat": 50.8503,
      "lng": 4.3517,
      "level": 0.5,
      "date": "2025-03-12",
      "description": "Restrictions imposed on water usage due to elevated toxin levels.",
      "badges": [
        "government",
        "restrictions",
        "water"
      ]
    },
    {
      "id": 6,
      "name": "French Coastal Ecosystem Threat",
      "image": "contamination",
      "lat": 49.4664,
      "lng": 0.3673,
      "level": 0.6,
      "date": "2025-03-20",
      "description": "Reports of damaged marine life and ecosystem impacts on the French coast.",
      "badges": [
        "ecosystem",
        "marine"
      ]
    },
    {
      "id": 7,
      "name": "Meeting of EU Environmental Ministers",
      "image": "summit",
      "lat": 50.6366,
      "lng": 5.5795,
      "level": 0.3,
      "date": "2025-03-25",
      "description": "Emergency meeting to coordinate transnational response.",
      "badges": [
        "government"
      ]
    },
    {
      "id": 8,
      "name": "Contaminants Detected in Atlantic",
      "image": "sea",
      "lat": 47.6062,
      "lng": -3.5762,
      "level": 0.5,
      "date": "2025-04-01",
      "description": "Elevated levels of toxins found along main ocean current.",
      "badges": [
        "marine",
        "spread"
      ]
    },
    {
      "id": 9,
      "name": "Stornoway Marine Observation",
      "image": "lookout",
      "lat": 58.2090,
      "lng": -6.3864,
      "level": 0.4,
      "date": "2025-04-02",
      "description": "UK authorities observe early signs of contamination near Stornoway.",
      "badges": [
        "observation",
        "marine"
      ]
    },
    {
      "id": 10,
      "name": "Heightened Concerns in New York",
      "image": "alert",
      "lat": 40.7128,
      "lng": -74.0060,
      "level": 0.6,
      "date": "2025-04-10",
      "description": "Contaminants detected approaching East Coast shores.",
      "badges": [
        "water"
      ]
    },
    {
      "id": 11,
      "name": "Cross-Atlantic Diplomatic Engagement",
      "image": "summit",
      "lat": 38.9072,
      "lng": -77.0369,
      "level": 0.3,
      "date": "2025-05-01",
      "description": "US and EU diplomatic talks discuss joint containment strategies.",
      "badges": [
        "government"
      ]
    },
    {
      "id": 12,
      "name": "Pilot Cleanup Projects Initiated",
      "image": "coastline",
      "lat": 51.1657,
      "lng": 10.4515,
      "level": 0.4,
      "date": "2025-05-02",
      "description": "Germany initiates pilot cleanup projects using new technology.",
      "badges": [
        "innovation"
      ]
    },
    {
      "id": 13,
      "name": "Massachusetts Coastal Alerts",
      "image": "alert",
      "lat": 42.4072,
      "lng": -71.3824,
      "level": 0.5,
      "date": "2025-04-12",
      "description": "Residents advised against recreational water activities.",
      "badges": [
        "alert"
      ]
    },
    {
      "id": 14,
      "name": "Broad Policy Adjustments",
      "image": "government-eu",
      "lat": 50.1109,
      "lng": 8.6821,
      "level": 0.3,
      "date": "2025-06-01",
      "description": "EU announces adjustments in industrial waste regulations.",
      "badges": [
        "government",
        "industry"
      ]
    },
    {
      "id": 15,
      "name": "Toxic Traces Off Florida Coast",
      "image": "sea",
      "lat": 25.7617,
      "lng": -80.1918,
      "level": 0.4,
      "date": "2025-06-20",
      "description": "Low levels of contamination detected off the coast of Florida.",
      "badges": [
        "observation",
        "marine"
      ]
    },
    {
      "id": 16,
      "name": "International Environmental Summit",
      "image": "summit",
      "lat": 48.8566,
      "lng": 2.3522,
      "level": 0.2,
      "date": "2025-07-25",
      "description": "Global summit tackling environmental disaster management.",
      "badges": [
        "government",
        "ecosystem"
      ]
    },
    {
      "id": 17,
      "name": "Public Awareness Campaign Launch",
      "image": "government-eu",
      "lat": 52.5200,
      "lng": 13.4050,
      "level": 0.2,
      "date": "2025-08-25",
      "description": "EU launches campaign to raise awareness about contamination.",
      "badges": [
        "alert"
      ]
    },
    {
      "id": 18,
      "name": "Boston Fishery Closures",
      "image": "alert",
      "lat": 42.3601,
      "lng": -71.0589,
      "level": 0.5,
      "date": "2025-04-15",
      "description": "Fishing operations temporarily halted due to contamination.",
      "badges": [
        "fishing",
        "restrictions"
      ]
    },
    {
      "id": 19,
      "name": "Irish Waters Monitoring Upgrade",
      "image": "lookout",
      "lat": 53.3498,
      "lng": -6.2603,
      "level": 0.3,
      "date": "2025-09-20",
      "description": "Ireland enhances monitoring systems for better detection.",
      "badges": [
        "observation",
        "innovation",
        "water"
      ]
    },
    {
      "id": 20,
      "name": "Implementation of New US Policies",
      "image": "government-us",
      "lat": 39.7392,
      "lng": -104.9903,
      "level": 0.3,
      "date": "2025-10-01",
      "description": "US updates its environmental policies in response to crisis.",
      "badges": [
        "government",
        "innovation",
        "ecosystem"
      ]
    },
    {
      "id": 21,
      "name": "Restoration Project in Normandy",
      "image": "ngo",
      "lat": 49.1829,
      "lng": -0.3707,
      "level": 0.4,
      "date": "2025-09-25",
      "description": "Major restoration project underway to revive affected ecosystems.",
      "badges": [
        "ecosystem",
        "innovation"
      ]
    },
    {
      "id": 22,
      "name": "Coastal Monitoring in Portugal",
      "image": "lookout",
      "lat": 38.7223,
      "lng": -9.1393,
      "level": 0.3,
      "date": "2025-10-16",
      "description": "Portugal initiated continuous coastal monitoring systems.",
      "badges": [
        "marine",
        "observation"
      ]
    },
    {
      "id": 23,
      "name": "Canadian East Coast Vigilance",
      "image": "lookout",
      "lat": 45.4201,
      "lng": -75.7003,
      "level": 0.2,
      "date": "2025-11-05",
      "description": "Canadian authorities on high alert for potential threat.",
      "badges": [
        "alert",
        "marine"
      ]
    },
    {
      "id": 24,
      "name": "Netherlands: Toxin Levels Decline",
      "image": "coastline",
      "lat": 52.1326,
      "lng": 5.2913,
      "level": 0.3,
      "date": "2025-11-06",
      "description": "Reports indicate a decline in contamination levels.",
      "badges": [
        "decline"
      ]
    },
    {
      "id": 28,
      "name": "Investor Conference on Green Tech",
      "image": "tech-conference",
      "lat": 48.1351,
      "lng": 11.5820,
      "level": 0.1,
      "date": "2025-11-10",
      "description": "Conference attracts interest in environmental tech investment.",
      "badges": [
        "innovation",
        "industry"
      ]
    },
    {
      "id": 27,
      "name": "New EU-Wide Safety Regulations",
      "image": "government-eu",
      "lat": 50.0647,
      "lng": 19.9450,
      "level": 0.2,
      "date": "2025-11-15",
      "description": "EU finalizes new safety norms for future prevention.",
      "badges": [
        "government"
      ]
    },
    {
      "id": 25,
      "name": "Technological Innovations Announced",
      "image": "tech-conference",
      "lat": 51.1657,
      "lng": 10.4515,
      "level": 0.2,
      "date": "2025-12-05",
      "description": "Presentations on new tech solutions for environmental hazards.",
      "badges": [
        "innovation"
      ]
    },
    {
      "id": 30,
      "name": "Ongoing Education Initiatives",
      "image": "ngo",
      "lat": 51.5092,
      "lng": -0.1340,
      "level": 0.2,
      "date": "2025-12-10",
      "description": "Long-term education initiatives to prevent future crises.",
      "badges": [
        "innovation"
      ]
    },
    {
      "id": 29,
      "name": "EU Commends Cross-Atlantic Efforts",
      "image": "government-eu",
      "lat": 50.8503,
      "lng": 4.3517,
      "level": 0.3,
      "date": "2026-01-12",
      "description": "EU commends joint efforts between Europe and the USA.",
      "badges": [
        "government"
      ]
    },
    {
      "id": 26,
      "name": "Final Report: Impact Assessment",
      "image": "government-eu",
      "lat": 54.5260,
      "lng": 15.2551,
      "level": 0.1,
      "date": "2026-01-20",
      "description": "Comprehensive report on contamination's full impact released.",
      "badges": [
        "government"
      ]
    }
  ],
  "connections": [
    {
      "source": 1,
      "target": 2,
      "description": "Toxins spilled in train derailment entered local river."
    },
    {
      "source": 2,
      "target": 3,
      "description": "Contamination progresses downstream, prompting alerts in Nijmegen."
    },
    {
      "source": 2,
      "target": 4,
      "description": "Continued flow downstream reaches the North Sea."
    },
    {
      "source": 4,
      "target": 5,
      "description": "North Sea current spreads contamination to Belgium."
    },
    {
      "source": 4,
      "target": 6,
      "description": "Ecosystem disturbances detected along the French coast."
    },
    {
      "source": 4,
      "target": 7,
      "description": "French coastal ecosystem disturbances is reported in EU meeting."
    },
    {
      "source": 7,
      "target": 11,
      "description": "EU meeting results in diplomatic outreach to the US."
    },
    {
      "source": 4,
      "target": 8,
      "description": "Contamination enters the Atlantic Ocean."
    },
    {
      "source": 8,
      "target": 9,
      "description": "Marine contamination reaches waters near the UK."
    },
    {
      "source": 8,
      "target": 10,
      "description": "Atlantic Ocean contamination raises concerns in New York."
    },
    {
      "source": 10,
      "target": 11,
      "description": "Concerns in New York lead to collaborative efforts."
    },
    {
      "source": 10,
      "target": 18,
      "description": "Concerns in New York lead to collaborative efforts."
    },
    {
      "source": 11,
      "target": 12,
      "description": "Diplomatic talks spur pilot cleanup initiatives."
    },
    {
      "source": 10,
      "target": 13,
      "description": "New York warning extends to Massachusetts."
    },
    {
      "source": 12,
      "target": 14,
      "description": "Pilot cleanup projects influence wider EU policy adjustments."
    },
    {
      "source": 14,
      "target": 17,
      "description": "Policy changes prompt awareness campaigns."
    },
    {
      "source": 16,
      "target": 20,
      "description": "Policy changes prompt awareness campaigns."
    },
    {
      "source": 19,
      "target": 21,
      "description": "Policy changes prompt awareness campaigns."
    },
    {
      "source": 17,
      "target": 19,
      "description": "Policy changes prompt awareness campaigns."
    },
    {
      "source": 20,
      "target": 23,
      "description": "Policy changes prompt awareness campaigns."
    },
    {
      "source": 20,
      "target": 22,
      "description": "Policy changes prompt awareness campaigns."
    },
    {
      "source": 21,
      "target": 20,
      "description": "Restoration projects begin showing positive results."
    },
    {
      "source": 21,
      "target": 24,
      "description": "Restoration projects begin showing positive results."
    },
    {
      "source": 27,
      "target": 26,
      "description": "Portugal's monitoring feeds into final impact assessments."
    },
    {
      "source": 24,
      "target": 28,
      "description": "Decline in toxin levels contributes to positive assessments."
    },
    {
      "source": 24,
      "target": 27,
      "description": "Ministerial meetings influence EU regulatory updates."
    },
    {
      "source": 14,
      "target": 15,
      "description": "US coastal alerts extend to Florida."
    },
    {
      "source": 11,
      "target": 16,
      "description": "Diplomatic talks set the stage for international summit."
    },
    {
      "source": 28,
      "target": 25,
      "description": "Conference boosts investments in technological innovations."
    },
    {
      "source": 25,
      "target": 30,
      "description": "Tech innovations become part of educational initiatives."
    },
    {
      "source": 29,
      "target": 26,
      "description": "Successful implementation of new regulations and ongoing international cooperation prompts EU commendations."
    },
    {
      "source": 30,
      "target": 29,
      "description": "Successful implementation of new regulations and ongoing international cooperation prompts EU commendations."
    }
  ]
}
